[{"pk": 248, "model": "search.pointsofinterest", "fields": {"neighborhood": 14, "name": "Flipside Footwear", "data_type": "XML", "avg_review": 0.0, "created_at": "2009-03-12 16:11:25", "popularity": 1, "updated_at": "2009-06-23 23:52:35", "longitude": -76.614080999999999, "num_reviews": 0, "review_points": 0, "source_id": 2, "latitude": 39.275886999999997}}, {"pk": 288, "model": "search.pointsofinterest", "fields": {"neighborhood": 16, "name": "Black Olive", "data_type": "XML", "avg_review": 4.0, "created_at": "2009-03-12 16:11:26", "popularity": 12, "updated_at": "2009-06-23 23:52:35", "longitude": -76.595213999999999, "num_reviews": 1, "review_points": 4, "source_id": 2, "latitude": 39.281959000000001}}, {"pk": 111, "model": "search.pointsofinterest", "fields": {"neighborhood": 3, "name": "Akbar", "data_type": "XML", "avg_review": 4.0, "created_at": "2009-03-12 16:11:24", "popularity": 12, "updated_at": "2009-06-23 23:52:34", "longitude": -76.615567999999996, "num_reviews": 2, "review_points": 8, "source_id": 2, "latitude": 39.299348000000002}}, {"pk": 567, "model": "search.pointsofinterest", "fields": {"neighborhood": 17, "name": "Dogwood Deli", "data_type": "XML", "avg_review": 4.0, "created_at": "2009-03-12 16:11:27", "popularity": 11, "updated_at": "2009-06-23 23:52:38", "longitude": -76.631772999999995, "num_reviews": 1, "review_points": 4, "source_id": 2, "latitude": 39.331004999999998}}, {"pk": 635, "model": "search.pointsofinterest", "fields": {"neighborhood": null, "name": "Saigon Remembered", "data_type": "XML", "avg_review": 3.0, "created_at": "2009-03-12 16:11:28", "popularity": 6, "updated_at": null, "longitude": -76.609921999999997, "num_reviews": 3, "review_points": 9, "source_id": 2, "latitude": 39.363265599999998}}, {"pk": 405, "model": "search.pointsofinterest", "fields": {"neighborhood": 16, "name": "Charm City Yoga", "data_type": "XML", "avg_review": 0.0, "created_at": "2009-03-12 16:11:26", "popularity": 3, "updated_at": "2009-06-23 23:52:36", "longitude": -76.590652000000006, "num_reviews": 0, "review_points": 0, "source_id": 2, "latitude": 39.281815999999999}}, {"pk": 292, "model": "search.pointsofinterest", "fields": {"neighborhood": null, "name": "Idle Hour", "data_type": "XML", "avg_review": 0.0, "created_at": "2009-03-12 16:11:26", "popularity": 4, "updated_at": null, "longitude": -76.609881999999985, "num_reviews": 0, "review_points": 0, "source_id": 2, "latitude": 39.272607999999998}}, {"pk": 595, "model": "search.pointsofinterest", "fields": {"neighborhood": 17, "name": "El Rancho Grande", "data_type": "XML", "avg_review": 3.0, "created_at": "2009-03-12 16:11:28", "popularity": 2, "updated_at": "2009-06-23 23:52:38", "longitude": -76.635172999999995, "num_reviews": 1, "review_points": 3, "source_id": 2, "latitude": 39.331054999999999}}, {"pk": 610, "model": "search.pointsofinterest", "fields": {"neighborhood": 17, "name": "Dimitri's Tavern", "data_type": "XML", "avg_review": 0.0, "created_at": "2009-03-12 16:11:28", "popularity": 0, "updated_at": "2009-06-23 23:52:38", "longitude": -76.636155000000002, "num_reviews": 0, "review_points": 0, "source_id": 2, "latitude": 39.334296999999999}}, {"pk": 631, "model": "search.pointsofinterest", "fields": {"neighborhood": null, "name": "The Parkside Fine Foods & Spirits", "data_type": "XML", "avg_review": 0.0, "created_at": "2009-03-12 16:11:28", "popularity": 1, "updated_at": null, "longitude": -76.568220999999994, "num_reviews": 0, "review_points": 0, "source_id": 2, "latitude": 39.343370999999998}}, {"pk": 119, "model": "search.pointsofinterest", "fields": {"neighborhood": 13, "name": "Ciao Bella", "data_type": "XML", "avg_review": 5.0, "created_at": "2009-03-12 16:11:24", "popularity": 4, "updated_at": "2009-06-23 23:52:34", "longitude": -76.602270000000004, "num_reviews": 2, "review_points": 10, "source_id": 2, "latitude": 39.286670999999998}}, {"pk": 3, "model": "search.pointsofinterest", "fields": {"neighborhood": 5, "name": "Sammy's Trattoria", "data_type": "XML", "avg_review": 0.0, "created_at": "2009-03-12 16:11:24", "popularity": 2, "updated_at": "2009-06-23 23:52:33", "longitude": -76.615478999999993, "num_reviews": 0, "review_points": 0, "source_id": 2, "latitude": 39.291400000000003}}, {"pk": 239, "model": "search.pointsofinterest", "fields": {"neighborhood": 15, "name": "Whole Foods", "data_type": "XML", "avg_review": 0.0, "created_at": "2009-03-12 16:11:25", "popularity": 31, "updated_at": "2009-06-23 23:52:35", "longitude": -76.599739, "num_reviews": 0, "review_points": 0, "source_id": 2, "latitude": 39.284097000000003}}, {"pk": 469, "model": "search.pointsofinterest", "fields": {"neighborhood": 12, "name": "Mahaffey's", "data_type": "XML", "avg_review": 3.0, "created_at": "2009-03-12 16:11:27", "popularity": 16, "updated_at": "2009-06-23 23:52:37", "longitude": -76.578010000000006, "num_reviews": 1, "review_points": 3, "source_id": 2, "latitude": 39.281274000000003}}, {"pk": 481, "model": "search.pointsofinterest", "fields": {"neighborhood": 12, "name": "Portside Tavern", "data_type": "XML", "avg_review": 3.0, "created_at": "2009-03-12 16:11:27", "popularity": 11, "updated_at": "2009-06-23 23:52:37", "longitude": -76.575991999999999, "num_reviews": 1, "review_points": 3, "source_id": 2, "latitude": 39.279843}}, {"pk": 193, "model": "search.pointsofinterest", "fields": {"neighborhood": 20, "name": "Red Square", "data_type": "XML", "avg_review": 4.0, "created_at": "2009-03-12 16:11:25", "popularity": 3, "updated_at": "2009-06-23 23:52:34", "longitude": -76.615953000000005, "num_reviews": 1, "review_points": 4, "source_id": 2, "latitude": 39.301845}}, {"pk": 64, "model": "search.pointsofinterest", "fields": {"neighborhood": 3, "name": "Paris West Optical", "data_type": "XML", "avg_review": 0.0, "created_at": "2009-03-12 16:11:24", "popularity": 0, "updated_at": "2009-06-23 23:52:33", "longitude": -76.615337999999994, "num_reviews": 0, "review_points": 0, "source_id": 2, "latitude": 39.295889000000003}}, {"pk": 461, "model": "search.pointsofinterest", "fields": {"neighborhood": 12, "name": "Cakelove", "data_type": "XML", "avg_review": 2.0, "created_at": "2009-03-12 16:11:27", "popularity": 7, "updated_at": "2009-06-23 23:52:37", "longitude": -76.580888999999999, "num_reviews": 2, "review_points": 4, "source_id": 2, "latitude": 39.281058000000002}}, {"pk": 464, "model": "search.pointsofinterest", "fields": {"neighborhood": 1, "name": " New No Da Ji", "data_type": "XML", "avg_review": 3.0, "created_at": "2009-03-12 16:11:27", "popularity": 2, "updated_at": "2009-06-23 23:52:37", "longitude": -76.616771999999997, "num_reviews": 1, "review_points": 3, "source_id": 2, "latitude": 39.318012000000003}}, {"pk": 373, "model": "search.pointsofinterest", "fields": {"neighborhood": 16, "name": "Slainte Irish Pub", "data_type": "XML", "avg_review": 4.0, "created_at": "2009-03-12 16:11:26", "popularity": 25, "updated_at": "2009-06-23 23:52:36", "longitude": -76.592541999999995, "num_reviews": 1, "review_points": 4, "source_id": 2, "latitude": 39.282038}}, {"pk": 9, "model": "search.pointsofinterest", "fields": {"neighborhood": 5, "name": "Xanadu", "data_type": "XML", "avg_review": 0.0, "created_at": "2009-03-12 16:11:24", "popularity": 1, "updated_at": "2009-06-23 23:52:33", "longitude": -76.612258199999999, "num_reviews": 0, "review_points": 0, "source_id": 2, "latitude": 39.289243200000001}}, {"pk": 299, "model": "search.pointsofinterest", "fields": {"neighborhood": null, "name": "Little Havana", "data_type": "XML", "avg_review": 3.0, "created_at": "2009-03-12 16:11:26", "popularity": 38, "updated_at": null, "longitude": -76.60370060000001, "num_reviews": 7, "review_points": 21, "source_id": 2, "latitude": 39.274344499999998}}, {"pk": 678, "model": "search.pointsofinterest", "fields": {"neighborhood": null, "name": "Dead Freddie's ", "data_type": "XML", "avg_review": 0.0, "created_at": "2009-03-12 16:11:28", "popularity": 0, "updated_at": null, "longitude": -76.547297999999998, "num_reviews": 0, "review_points": 0, "source_id": 2, "latitude": 39.368318000000002}}, {"pk": 509, "model": "search.pointsofinterest", "fields": {"neighborhood": null, "name": "The Dizz (formerly Dizzy Issies)", "data_type": "XML", "avg_review": 4.0, "created_at": "2009-03-12 16:11:27", "popularity": 12, "updated_at": null, "longitude": -76.62284750000002, "num_reviews": 1, "review_points": 4, "source_id": 2, "latitude": 39.323117199999999}}, {"pk": 682, "model": "search.pointsofinterest", "fields": {"neighborhood": null, "name": "The Healing Path", "data_type": "XML", "avg_review": 0.0, "created_at": "2009-03-12 16:11:28", "popularity": 1, "updated_at": null, "longitude": -76.233328399999991, "num_reviews": 0, "review_points": 0, "source_id": 2, "latitude": 39.468059800000013}}, {"pk": 478, "model": "search.pointsofinterest", "fields": {"neighborhood": 12, "name": "Rosina Gourmet", "data_type": "XML", "avg_review": 0.0, "created_at": "2009-03-12 16:11:27", "popularity": 5, "updated_at": "2009-06-23 23:52:37", "longitude": -76.576188000000002, "num_reviews": 0, "review_points": 0, "source_id": 2, "latitude": 39.279834999999999}}, {"pk": 60, "model": "search.pointsofinterest", "fields": {"neighborhood": 3, "name": "Ixia", "data_type": "XML", "avg_review": 4.0, "created_at": "2009-03-12 16:11:24", "popularity": 16, "updated_at": "2009-06-23 23:52:33", "longitude": -76.615797000000001, "num_reviews": 2, "review_points": 8, "source_id": 2, "latitude": 39.295824000000003}}, {"pk": 65, "model": "search.pointsofinterest", "fields": {"neighborhood": 5, "name": "Howl at the Moon", "data_type": "XML", "avg_review": 4.0, "created_at": "2009-03-12 16:11:24", "popularity": 7, "updated_at": "2009-06-23 23:52:33", "longitude": -76.606964000000005, "num_reviews": 2, "review_points": 8, "source_id": 2, "latitude": 39.288460999999998}}, {"pk": 525, "model": "search.pointsofinterest", "fields": {"neighborhood": 10, "name": "The Book Thing", "data_type": "XML", "avg_review": 5.0, "created_at": "2009-03-12 16:11:27", "popularity": 7, "updated_at": "2009-06-23 23:52:38", "longitude": -76.610151999999999, "num_reviews": 1, "review_points": 5, "source_id": 2, "latitude": 39.325150000000001}}, {"pk": 278, "model": "search.pointsofinterest", "fields": {"neighborhood": null, "name": "Baltimore Boxing", "data_type": "XML", "avg_review": 0.0, "created_at": "2009-03-12 16:11:26", "popularity": 1, "updated_at": null, "longitude": -76.593974099999997, "num_reviews": 0, "review_points": 0, "source_id": 2, "latitude": 39.291520199999987}}, {"pk": 544, "model": "search.pointsofinterest", "fields": {"neighborhood": null, "name": "Chicken Rico", "data_type": "XML", "avg_review": 4.0, "created_at": "2009-03-12 16:11:27", "popularity": 19, "updated_at": null, "longitude": -76.565601000000001, "num_reviews": 4, "review_points": 16, "source_id": 2, "latitude": 39.286848999999997}}, {"pk": 124, "model": "search.pointsofinterest", "fields": {"neighborhood": 3, "name": "Kumari", "data_type": "XML", "avg_review": 0.0, "created_at": "2009-03-12 16:11:25", "popularity": 1, "updated_at": "2009-06-23 23:52:34", "longitude": -76.615609000000006, "num_reviews": 0, "review_points": 0, "source_id": 2, "latitude": 39.3001}}, {"pk": 420, "model": "search.pointsofinterest", "fields": {"neighborhood": 21, "name": "Windup Space", "data_type": "XML", "avg_review": 3.0, "created_at": "2009-03-12 16:11:27", "popularity": 17, "updated_at": "2009-06-23 23:52:37", "longitude": -76.617372000000003, "num_reviews": 1, "review_points": 3, "source_id": 2, "latitude": 39.311324999999997}}, {"pk": 137, "model": "search.pointsofinterest", "fields": {"neighborhood": 3, "name": "Brass Elephant", "data_type": "XML", "avg_review": 0.0, "created_at": "2009-03-12 16:11:25", "popularity": 4, "updated_at": "2009-06-23 23:52:34", "longitude": -76.616094000000004, "num_reviews": 0, "review_points": 0, "source_id": 2, "latitude": 39.300449}}, {"pk": 229, "model": "search.pointsofinterest", "fields": {"neighborhood": 15, "name": "Kashmir Imports", "data_type": "XML", "avg_review": 0.0, "created_at": "2009-03-12 16:11:25", "popularity": 1, "updated_at": "2009-06-23 23:52:35", "longitude": -76.600663900000001, "num_reviews": 0, "review_points": 0, "source_id": 2, "latitude": 39.283218599999998}}, {"pk": 428, "model": "search.pointsofinterest", "fields": {"neighborhood": null, "name": "Aloha Tokyo", "data_type": "XML", "avg_review": 0.0, "created_at": "2009-03-12 16:11:27", "popularity": 0, "updated_at": null, "longitude": -76.598173000000003, "num_reviews": 0, "review_points": 0, "source_id": 2, "latitude": 39.270767000000014}}, {"pk": 545, "model": "search.pointsofinterest", "fields": {"neighborhood": 1, "name": "Niwana Japanese & Korean", "data_type": "XML", "avg_review": 4.0, "created_at": "2009-03-12 16:11:27", "popularity": 6, "updated_at": "2009-06-23 23:52:38", "longitude": -76.616682600000004, "num_reviews": 3, "review_points": 12, "source_id": 2, "latitude": 39.328097800000002}}, {"pk": 562, "model": "search.pointsofinterest", "fields": {"neighborhood": 17, "name": "Common Ground", "data_type": "XML", "avg_review": 4.0, "created_at": "2009-03-12 16:11:27", "popularity": 7, "updated_at": "2009-06-23 23:52:38", "longitude": -76.629986000000002, "num_reviews": 1, "review_points": 4, "source_id": 2, "latitude": 39.331077999999998}}, {"pk": 448, "model": "search.pointsofinterest", "fields": {"neighborhood": null, "name": "Kitty Kat Bar", "data_type": "XML", "avg_review": 0.0, "created_at": "2009-03-12 16:11:27", "popularity": 4, "updated_at": null, "longitude": -76.62207699999999, "num_reviews": 0, "review_points": 0, "source_id": 2, "latitude": 39.315240999999993}}, {"pk": 440, "model": "search.pointsofinterest", "fields": {"neighborhood": 12, "name": "Geckos", "data_type": "XML", "avg_review": 2.0, "created_at": "2009-03-12 16:11:27", "popularity": 16, "updated_at": "2009-06-23 23:52:37", "longitude": -76.583624999999998, "num_reviews": 2, "review_points": 4, "source_id": 2, "latitude": 39.285139999999998}}, {"pk": 445, "model": "search.pointsofinterest", "fields": {"neighborhood": 12, "name": "Birches", "data_type": "XML", "avg_review": 4.0, "created_at": "2009-03-12 16:11:27", "popularity": 13, "updated_at": "2009-06-23 23:52:37", "longitude": -76.582556999999994, "num_reviews": 1, "review_points": 4, "source_id": 2, "latitude": 39.284095999999998}}, {"pk": 386, "model": "search.pointsofinterest", "fields": {"neighborhood": 21, "name": "Club 1722", "data_type": "XML", "avg_review": 0.0, "created_at": "2009-03-12 16:11:26", "popularity": 0, "updated_at": "2009-06-23 23:52:36", "longitude": -76.616675999999998, "num_reviews": 0, "review_points": 0, "source_id": 2, "latitude": 39.309437000000003}}, {"pk": 273, "model": "search.pointsofinterest", "fields": {"neighborhood": 16, "name": "Baltimore Tattoo Museum", "data_type": "XML", "avg_review": 4.0, "created_at": "2009-03-12 16:11:26", "popularity": 6, "updated_at": "2009-06-23 23:52:35", "longitude": -76.595569999999995, "num_reviews": 1, "review_points": 4, "source_id": 2, "latitude": 39.285662000000002}}, {"pk": 605, "model": "search.pointsofinterest", "fields": {"neighborhood": null, "name": "Acropolis", "data_type": "XML", "avg_review": 0.0, "created_at": "2009-03-12 16:11:28", "popularity": 2, "updated_at": null, "longitude": -76.556004000000001, "num_reviews": 0, "review_points": 0, "source_id": 2, "latitude": 39.287260999999987}}, {"pk": 171, "model": "search.pointsofinterest", "fields": {"neighborhood": 14, "name": "Light Street Cycles", "data_type": "XML", "avg_review": 0.0, "created_at": "2009-03-12 16:11:25", "popularity": 3, "updated_at": "2009-06-23 23:52:34", "longitude": -76.612504000000001, "num_reviews": 0, "review_points": 0, "source_id": 2, "latitude": 39.277873999999997}}, {"pk": 502, "model": "search.pointsofinterest", "fields": {"neighborhood": null, "name": "Papermoon Diner", "data_type": "XML", "avg_review": 4.0, "created_at": "2009-03-12 16:11:27", "popularity": 40, "updated_at": null, "longitude": -76.621204999999989, "num_reviews": 3, "review_points": 12, "source_id": 2, "latitude": 39.322415999999997}}, {"pk": 76, "model": "search.pointsofinterest", "fields": {"neighborhood": 3, "name": "Spy Club", "data_type": "XML", "avg_review": 0.0, "created_at": "2009-03-12 16:11:24", "popularity": 2, "updated_at": "2009-06-23 23:52:33", "longitude": -76.614643999999998, "num_reviews": 0, "review_points": 0, "source_id": 2, "latitude": 39.296202999999998}}, {"pk": 383, "model": "search.pointsofinterest", "fields": {"neighborhood": 21, "name": "Tapas Teatro", "data_type": "XML", "avg_review": 4.0, "created_at": "2009-03-12 16:11:26", "popularity": 20, "updated_at": "2009-06-23 23:52:36", "longitude": -76.616202000000001, "num_reviews": 2, "review_points": 8, "source_id": 2, "latitude": 39.309224999999998}}, {"pk": 372, "model": "search.pointsofinterest", "fields": {"neighborhood": null, "name": "Henninger's Tavern", "data_type": "XML", "avg_review": 5.0, "created_at": "2009-03-12 16:11:26", "popularity": 8, "updated_at": null, "longitude": -76.590835600000005, "num_reviews": 2, "review_points": 10, "source_id": 2, "latitude": 39.286729299999998}}, {"pk": 460, "model": "search.pointsofinterest", "fields": {"neighborhood": 12, "name": "Pasticcio", "data_type": "XML", "avg_review": 0.0, "created_at": "2009-03-12 16:11:27", "popularity": 4, "updated_at": "2009-06-23 23:52:37", "longitude": -76.580780000000004, "num_reviews": 0, "review_points": 0, "source_id": 2, "latitude": 39.281483000000001}}, {"pk": 359, "model": "search.pointsofinterest", "fields": {"neighborhood": 16, "name": "Aura", "data_type": "XML", "avg_review": 0.0, "created_at": "2009-03-12 16:11:26", "popularity": 0, "updated_at": "2009-06-23 23:52:36", "longitude": -76.592511000000002, "num_reviews": 0, "review_points": 0, "source_id": 2, "latitude": 39.283389}}, {"pk": 74, "model": "search.pointsofinterest", "fields": {"neighborhood": 5, "name": "Angels Rock Bar", "data_type": "XML", "avg_review": 0.0, "created_at": "2009-03-12 16:11:24", "popularity": 4, "updated_at": "2009-06-23 23:52:33", "longitude": -76.606943999999999, "num_reviews": 0, "review_points": 0, "source_id": 2, "latitude": 39.288348999999997}}, {"pk": 56, "model": "search.pointsofinterest", "fields": {"neighborhood": 5, "name": "Faidley Seafood", "data_type": "XML", "avg_review": 5.0, "created_at": "2009-03-12 16:11:24", "popularity": 4, "updated_at": "2009-06-23 23:52:33", "longitude": -76.622411299999996, "num_reviews": 1, "review_points": 5, "source_id": 2, "latitude": 39.291469999999997}}, {"pk": 117, "model": "search.pointsofinterest", "fields": {"neighborhood": 3, "name": "Marie Louise Bistro", "data_type": "XML", "avg_review": 3.0, "created_at": "2009-03-12 16:11:24", "popularity": 0, "updated_at": "2009-06-23 23:52:34", "longitude": -76.616057999999995, "num_reviews": 1, "review_points": 3, "source_id": 2, "latitude": 39.299841999999998}}, {"pk": 588, "model": "search.pointsofinterest", "fields": {"neighborhood": 17, "name": "True Vine", "data_type": "XML", "avg_review": 4.0, "created_at": "2009-03-12 16:11:28", "popularity": 6, "updated_at": "2009-06-23 23:52:38", "longitude": -76.634546999999998, "num_reviews": 1, "review_points": 4, "source_id": 2, "latitude": 39.330871000000002}}, {"pk": 485, "model": "search.pointsofinterest", "fields": {"neighborhood": 12, "name": "Firehouse Coffee Company (formerly Daily Grind)", "data_type": "XML", "avg_review": 4.0, "created_at": "2009-03-12 16:11:27", "popularity": 13, "updated_at": "2009-06-23 23:52:37", "longitude": -76.575648999999999, "num_reviews": 3, "review_points": 12, "source_id": 2, "latitude": 39.280161999999997}}, {"pk": 305, "model": "search.pointsofinterest", "fields": {"neighborhood": 16, "name": "Blarney Stone", "data_type": "XML", "avg_review": 0.0, "created_at": "2009-03-12 16:11:26", "popularity": 8, "updated_at": "2009-06-23 23:52:35", "longitude": -76.593695999999994, "num_reviews": 0, "review_points": 0, "source_id": 2, "latitude": 39.283284000000002}}, {"pk": 46, "model": "search.pointsofinterest", "fields": {"neighborhood": 5, "name": "Sotto Sopra", "data_type": "XML", "avg_review": 3.0, "created_at": "2009-03-12 16:11:24", "popularity": 18, "updated_at": "2009-06-23 23:52:33", "longitude": -76.615245000000002, "num_reviews": 2, "review_points": 6, "source_id": 2, "latitude": 39.294432}}, {"pk": 192, "model": "search.pointsofinterest", "fields": {"neighborhood": 14, "name": "Beach Bums", "data_type": "XML", "avg_review": 4.0, "created_at": "2009-03-12 16:11:25", "popularity": 4, "updated_at": "2009-06-23 23:52:34", "longitude": -76.612650000000002, "num_reviews": 1, "review_points": 4, "source_id": 2, "latitude": 39.277391000000001}}, {"pk": 452, "model": "search.pointsofinterest", "fields": {"neighborhood": 31, "name": "Himalayan House", "data_type": "XML", "avg_review": 0.0, "created_at": "2009-03-12 16:11:27", "popularity": 0, "updated_at": "2009-06-23 23:52:37", "longitude": -76.593012000000002, "num_reviews": 0, "review_points": 0, "source_id": 2, "latitude": 39.268982999999999}}, {"pk": 286, "model": "search.pointsofinterest", "fields": {"neighborhood": 16, "name": "Ritz Cabaret", "data_type": "XML", "avg_review": 0.0, "created_at": "2009-03-12 16:11:26", "popularity": 1, "updated_at": "2009-06-23 23:52:35", "longitude": -76.593767, "num_reviews": 0, "review_points": 0, "source_id": 2, "latitude": 39.285348999999997}}, {"pk": 128, "model": "search.pointsofinterest", "fields": {"neighborhood": 20, "name": "Kyro Pizza", "data_type": "XML", "avg_review": 0.0, "created_at": "2009-03-12 16:11:25", "popularity": 0, "updated_at": "2009-06-23 23:52:34", "longitude": -76.617565999999997, "num_reviews": 0, "review_points": 0, "source_id": 2, "latitude": 39.300044999999997}}, {"pk": 310, "model": "search.pointsofinterest", "fields": {"neighborhood": 16, "name": "The Magnificent", "data_type": "XML", "avg_review": 0.0, "created_at": "2009-03-12 16:11:26", "popularity": 0, "updated_at": "2009-06-23 23:52:36", "longitude": -76.594333000000006, "num_reviews": 0, "review_points": 0, "source_id": 2, "latitude": 39.281905999999999}}, {"pk": 296, "model": "search.pointsofinterest", "fields": {"neighborhood": 16, "name": "Driftwood", "data_type": "XML", "avg_review": 0.0, "created_at": "2009-03-12 16:11:26", "popularity": 0, "updated_at": "2009-06-23 23:52:35", "longitude": -76.595917999999998, "num_reviews": 0, "review_points": 0, "source_id": 2, "latitude": 39.280335000000001}}, {"pk": 557, "model": "search.pointsofinterest", "fields": {"neighborhood": 24, "name": "Wyman Park", "data_type": "XML", "avg_review": 4.0, "created_at": "2009-03-12 16:11:27", "popularity": 1, "updated_at": "2009-06-23 23:52:38", "longitude": -76.626704000000004, "num_reviews": 1, "review_points": 4, "source_id": 2, "latitude": 39.331447400000002}}, {"pk": 551, "model": "search.pointsofinterest", "fields": {"neighborhood": null, "name": "Five Guys Burgers and Fries", "data_type": "XML", "avg_review": 4.0, "created_at": "2009-03-12 16:11:27", "popularity": 16, "updated_at": null, "longitude": -76.56578140000002, "num_reviews": 2, "review_points": 8, "source_id": 2, "latitude": 39.277235699999999}}, {"pk": 419, "model": "search.pointsofinterest", "fields": {"neighborhood": null, "name": "Merritt Athletic Club", "data_type": "XML", "avg_review": 4.0, "created_at": "2009-03-12 16:11:26", "popularity": 5, "updated_at": null, "longitude": -76.600651999999997, "num_reviews": 1, "review_points": 4, "source_id": 2, "latitude": 39.271211999999998}}, {"pk": 197, "model": "search.pointsofinterest", "fields": {"neighborhood": 14, "name": "Stalking Horse", "data_type": "XML", "avg_review": 4.0, "created_at": "2009-03-12 16:11:25", "popularity": 9, "updated_at": "2009-06-23 23:52:34", "longitude": -76.613365999999999, "num_reviews": 1, "review_points": 4, "source_id": 2, "latitude": 39.277118999999999}}, {"pk": 279, "model": "search.pointsofinterest", "fields": {"neighborhood": null, "name": "Zella's Pizzeria", "data_type": "XML", "avg_review": 4.0, "created_at": "2009-03-12 16:11:26", "popularity": 10, "updated_at": null, "longitude": -76.63650899999999, "num_reviews": 7, "review_points": 28, "source_id": 2, "latitude": 39.287435000000002}}, {"pk": 235, "model": "search.pointsofinterest", "fields": {"neighborhood": 20, "name": "Dukem", "data_type": "XML", "avg_review": 3.0, "created_at": "2009-03-12 16:11:25", "popularity": 6, "updated_at": "2009-06-23 23:52:35", "longitude": -76.617698000000004, "num_reviews": 2, "review_points": 6, "source_id": 2, "latitude": 39.302522000000003}}, {"pk": 230, "model": "search.pointsofinterest", "fields": {"neighborhood": 15, "name": "Glarus Chocolatier", "data_type": "XML", "avg_review": 4.0, "created_at": "2009-03-12 16:11:25", "popularity": 4, "updated_at": "2009-06-23 23:52:35", "longitude": -76.600264999999993, "num_reviews": 3, "review_points": 12, "source_id": 2, "latitude": 39.283794999999998}}, {"pk": 627, "model": "search.pointsofinterest", "fields": {"neighborhood": null, "name": "The Chameleon Cafe", "data_type": "XML", "avg_review": 0.0, "created_at": "2009-03-12 16:11:28", "popularity": 2, "updated_at": null, "longitude": -76.572700900000001, "num_reviews": 0, "review_points": 0, "source_id": 2, "latitude": 39.3395625}}, {"pk": 143, "model": "search.pointsofinterest", "fields": {"neighborhood": 20, "name": "Eddies Of Eager Street", "data_type": "XML", "avg_review": 4.0, "created_at": "2009-03-12 16:11:25", "popularity": 2, "updated_at": "2009-06-23 23:52:34", "longitude": -76.616691000000003, "num_reviews": 1, "review_points": 4, "source_id": 2, "latitude": 39.300798}}, {"pk": 91, "model": "search.pointsofinterest", "fields": {"neighborhood": null, "name": "Maryland Science Center", "data_type": "XML", "avg_review": 0.0, "created_at": "2009-03-12 16:11:24", "popularity": 13, "updated_at": null, "longitude": -76.612579000000011, "num_reviews": 0, "review_points": 0, "source_id": 2, "latitude": 39.281244999999998}}, {"pk": 609, "model": "search.pointsofinterest", "fields": {"neighborhood": null, "name": "Ikaros", "data_type": "XML", "avg_review": 4.0, "created_at": "2009-03-12 16:11:28", "popularity": 7, "updated_at": null, "longitude": -76.555498999999998, "num_reviews": 2, "review_points": 8, "source_id": 2, "latitude": 39.286923999999999}}, {"pk": 546, "model": "search.pointsofinterest", "fields": {"neighborhood": null, "name": "Merritt Athletic Club", "data_type": "XML", "avg_review": 0.0, "created_at": "2009-03-12 16:11:27", "popularity": 8, "updated_at": null, "longitude": -76.567890000000006, "num_reviews": 0, "review_points": 0, "source_id": 2, "latitude": 39.276842000000002}}, {"pk": 388, "model": "search.pointsofinterest", "fields": {"neighborhood": null, "name": "Shake and Bake Family Fun Center", "data_type": "XML", "avg_review": 3.0, "created_at": "2009-03-12 16:11:26", "popularity": 3, "updated_at": null, "longitude": -76.633967999999996, "num_reviews": 1, "review_points": 3, "source_id": 2, "latitude": 39.303251000000003}}, {"pk": 553, "model": "search.pointsofinterest", "fields": {"neighborhood": null, "name": "Dogma", "data_type": "XML", "avg_review": 5.0, "created_at": "2009-03-12 16:11:27", "popularity": 4, "updated_at": null, "longitude": -76.565781000000001, "num_reviews": 2, "review_points": 10, "source_id": 2, "latitude": 39.277236000000002}}, {"pk": 628, "model": "search.pointsofinterest", "fields": {"neighborhood": null, "name": "Broadway Diner", "data_type": "XML", "avg_review": 0.0, "created_at": "2009-03-12 16:11:28", "popularity": 3, "updated_at": null, "longitude": -76.536619000000002, "num_reviews": 0, "review_points": 0, "source_id": 2, "latitude": 39.287478}}, {"pk": 48, "model": "search.pointsofinterest", "fields": {"neighborhood": 5, "name": "Hollywood Diner", "data_type": "XML", "avg_review": 0.0, "created_at": "2009-03-12 16:11:24", "popularity": 0, "updated_at": "2009-06-23 23:52:33", "longitude": -76.610125999999994, "num_reviews": 0, "review_points": 0, "source_id": 2, "latitude": 39.292682999999997}}, {"pk": 207, "model": "search.pointsofinterest", "fields": {"neighborhood": 13, "name": "La Scala", "data_type": "XML", "avg_review": 4.0, "created_at": "2009-03-12 16:11:25", "popularity": 9, "updated_at": "2009-06-23 23:52:35", "longitude": -76.599784999999997, "num_reviews": 2, "review_points": 8, "source_id": 2, "latitude": 39.285480999999997}}, {"pk": 260, "model": "search.pointsofinterest", "fields": {"neighborhood": 20, "name": "Baltimore Symphony Orchestra", "data_type": "XML", "avg_review": 4.0, "created_at": "2009-03-12 16:11:25", "popularity": 4, "updated_at": "2009-06-23 23:52:35", "longitude": -76.618769999999998, "num_reviews": 1, "review_points": 4, "source_id": 2, "latitude": 39.303995}}, {"pk": 352, "model": "search.pointsofinterest", "fields": {"neighborhood": 16, "name": "Maggie Moo's", "data_type": "XML", "avg_review": 0.0, "created_at": "2009-03-12 16:11:26", "popularity": 5, "updated_at": "2009-06-23 23:52:36", "longitude": -76.593132999999995, "num_reviews": 0, "review_points": 0, "source_id": 2, "latitude": 39.282415}}, {"pk": 650, "model": "search.pointsofinterest", "fields": {"neighborhood": null, "name": "Nouveau Contemporary Goods", "data_type": "XML", "avg_review": 0.0, "created_at": "2009-03-12 16:11:28", "popularity": 2, "updated_at": null, "longitude": -76.608303000000021, "num_reviews": 0, "review_points": 0, "source_id": 2, "latitude": 39.364224}}, {"pk": 516, "model": "search.pointsofinterest", "fields": {"neighborhood": null, "name": "G Spot", "data_type": "XML", "avg_review": 0.0, "created_at": "2009-03-12 16:11:27", "popularity": 1, "updated_at": null, "longitude": -76.630313000000001, "num_reviews": 0, "review_points": 0, "source_id": 2, "latitude": 39.322344999999999}}, {"pk": 658, "model": "search.pointsofinterest", "fields": {"neighborhood": null, "name": "Swallow At the Hollow", "data_type": "XML", "avg_review": 0.0, "created_at": "2009-03-12 16:11:28", "popularity": 4, "updated_at": null, "longitude": -76.609655000000004, "num_reviews": 0, "review_points": 0, "source_id": 2, "latitude": 39.364873000000003}}, {"pk": 66, "model": "search.pointsofinterest", "fields": {"neighborhood": 5, "name": "Rams Head", "data_type": "XML", "avg_review": 0.0, "created_at": "2009-03-12 16:11:24", "popularity": 13, "updated_at": "2009-06-23 23:52:33", "longitude": -76.606962499999995, "num_reviews": 0, "review_points": 0, "source_id": 2, "latitude": 39.288467400000002}}, {"pk": 450, "model": "search.pointsofinterest", "fields": {"neighborhood": 12, "name": "Meridian 54 (formerly Red Fish)", "data_type": "XML", "avg_review": 3.0, "created_at": "2009-03-12 16:11:27", "popularity": 7, "updated_at": "2009-06-23 23:52:37", "longitude": -76.582417000000007, "num_reviews": 5, "review_points": 15, "source_id": 2, "latitude": 39.282091999999999}}, {"pk": 477, "model": "search.pointsofinterest", "fields": {"neighborhood": 12, "name": "Saute", "data_type": "XML", "avg_review": 4.0, "created_at": "2009-03-12 16:11:27", "popularity": 8, "updated_at": "2009-06-23 23:52:37", "longitude": -76.575695999999994, "num_reviews": 2, "review_points": 8, "source_id": 2, "latitude": 39.282381999999998}}, {"pk": 626, "model": "search.pointsofinterest", "fields": {"neighborhood": null, "name": "Chameleon Cafe", "data_type": "XML", "avg_review": 4.0, "created_at": "2009-03-12 16:11:28", "popularity": 4, "updated_at": null, "longitude": -76.572509999999994, "num_reviews": 1, "review_points": 4, "source_id": 2, "latitude": 39.339459000000012}}, {"pk": 643, "model": "search.pointsofinterest", "fields": {"neighborhood": null, "name": "Grand Cru", "data_type": "XML", "avg_review": 4.0, "created_at": "2009-03-12 16:11:28", "popularity": 19, "updated_at": null, "longitude": -76.609185299999993, "num_reviews": 1, "review_points": 4, "source_id": 2, "latitude": 39.364182100000001}}, {"pk": 52, "model": "search.pointsofinterest", "fields": {"neighborhood": 5, "name": "Ruth's Chris Steak House", "data_type": "XML", "avg_review": 4.0, "created_at": "2009-03-12 16:11:24", "popularity": 9, "updated_at": "2009-06-23 23:52:33", "longitude": -76.6080209, "num_reviews": 2, "review_points": 8, "source_id": 2, "latitude": 39.288657800000003}}, {"pk": 346, "model": "search.pointsofinterest", "fields": {"neighborhood": 16, "name": "Petticoat Tea Room", "data_type": "XML", "avg_review": 4.0, "created_at": "2009-03-12 16:11:26", "popularity": 2, "updated_at": "2009-06-23 23:52:36", "longitude": -76.593434999999999, "num_reviews": 1, "review_points": 4, "source_id": 2, "latitude": 39.282077999999998}}, {"pk": 5, "model": "search.pointsofinterest", "fields": {"neighborhood": 5, "name": "Brick Bodies", "data_type": "XML", "avg_review": 0.0, "created_at": "2009-03-12 16:11:24", "popularity": 2, "updated_at": "2009-06-23 23:52:33", "longitude": -76.615280900000002, "num_reviews": 0, "review_points": 0, "source_id": 2, "latitude": 39.291618}}, {"pk": 156, "model": "search.pointsofinterest", "fields": {"neighborhood": 13, "name": "Pepino's", "data_type": "XML", "avg_review": 0.0, "created_at": "2009-03-12 16:11:25", "popularity": 1, "updated_at": "2009-06-23 23:52:34", "longitude": -76.600757000000002, "num_reviews": 0, "review_points": 0, "source_id": 2, "latitude": 39.286707999999997}}, {"pk": 109, "model": "search.pointsofinterest", "fields": {"neighborhood": 3, "name": "Helmand", "data_type": "XML", "avg_review": 4.0, "created_at": "2009-03-12 16:11:24", "popularity": 47, "updated_at": "2009-06-23 23:52:34", "longitude": -76.615771800000005, "num_reviews": 5, "review_points": 20, "source_id": 2, "latitude": 39.299042100000001}}, {"pk": 524, "model": "search.pointsofinterest", "fields": {"neighborhood": 12, "name": "Shorty's", "data_type": "XML", "avg_review": 4.0, "created_at": "2009-03-12 16:11:27", "popularity": 1, "updated_at": "2009-06-23 23:52:38", "longitude": -76.569665999999998, "num_reviews": 1, "review_points": 4, "source_id": 2, "latitude": 39.284297000000002}}, {"pk": 108, "model": "search.pointsofinterest", "fields": {"neighborhood": 3, "name": "Thairish", "data_type": "XML", "avg_review": 0.0, "created_at": "2009-03-12 16:11:24", "popularity": 7, "updated_at": "2009-06-23 23:52:34", "longitude": -76.615767399999996, "num_reviews": 0, "review_points": 0, "source_id": 2, "latitude": 39.298992599999998}}, {"pk": 418, "model": "search.pointsofinterest", "fields": {"neighborhood": null, "name": "Wine Market", "data_type": "XML", "avg_review": 4.0, "created_at": "2009-03-12 16:11:26", "popularity": 30, "updated_at": null, "longitude": -76.600651999999997, "num_reviews": 5, "review_points": 20, "source_id": 2, "latitude": 39.271211999999998}}, {"pk": 242, "model": "search.pointsofinterest", "fields": {"neighborhood": 14, "name": "Taverna Corvino", "data_type": "XML", "avg_review": 0.0, "created_at": "2009-03-12 16:11:25", "popularity": 0, "updated_at": "2009-06-23 23:52:35", "longitude": -76.614332200000007, "num_reviews": 0, "review_points": 0, "source_id": 2, "latitude": 39.276170499999999}}, {"pk": 83, "model": "search.pointsofinterest", "fields": {"neighborhood": null, "name": "Pickles Pub", "data_type": "XML", "avg_review": 4.0, "created_at": "2009-03-12 16:11:24", "popularity": 8, "updated_at": null, "longitude": -76.622878000000014, "num_reviews": 1, "review_points": 4, "source_id": 2, "latitude": 39.285555000000002}}, {"pk": 188, "model": "search.pointsofinterest", "fields": {"neighborhood": 14, "name": "Corks", "data_type": "XML", "avg_review": 2.0, "created_at": "2009-03-12 16:11:25", "popularity": 8, "updated_at": "2009-06-23 23:52:34", "longitude": -76.614650999999995, "num_reviews": 2, "review_points": 4, "source_id": 2, "latitude": 39.277281000000002}}, {"pk": 539, "model": "search.pointsofinterest", "fields": {"neighborhood": 9, "name": "Rite Aid", "data_type": "XML", "avg_review": 5.0, "created_at": "2009-03-12 16:11:27", "popularity": 2, "updated_at": "2009-06-23 23:52:38", "longitude": -76.609144999999998, "num_reviews": 1, "review_points": 5, "source_id": 2, "latitude": 39.327066000000002}}, {"pk": 313, "model": "search.pointsofinterest", "fields": {"neighborhood": 16, "name": "Saints & Sinners", "data_type": "XML", "avg_review": 0.0, "created_at": "2009-03-12 16:11:26", "popularity": 5, "updated_at": "2009-06-23 23:52:36", "longitude": -76.594592000000006, "num_reviews": 0, "review_points": 0, "source_id": 2, "latitude": 39.281368000000001}}, {"pk": 356, "model": "search.pointsofinterest", "fields": {"neighborhood": null, "name": "Captain Larry's", "data_type": "XML", "avg_review": 5.0, "created_at": "2009-03-12 16:11:26", "popularity": 7, "updated_at": null, "longitude": -76.60496000000002, "num_reviews": 1, "review_points": 5, "source_id": 2, "latitude": 39.272727000000003}}, {"pk": 179, "model": "search.pointsofinterest", "fields": {"neighborhood": 14, "name": "Whimsy and Reason", "data_type": "XML", "avg_review": 0.0, "created_at": "2009-03-12 16:11:25", "popularity": 2, "updated_at": "2009-06-23 23:52:34", "longitude": -76.614210999999997, "num_reviews": 0, "review_points": 0, "source_id": 2, "latitude": 39.277541999999997}}, {"pk": 147, "model": "search.pointsofinterest", "fields": {"neighborhood": 15, "name": "Dalesio's", "data_type": "XML", "avg_review": 0.0, "created_at": "2009-03-12 16:11:25", "popularity": 0, "updated_at": "2009-06-23 23:52:34", "longitude": -76.601656000000006, "num_reviews": 0, "review_points": 0, "source_id": 2, "latitude": 39.285046000000001}}, {"pk": 112, "model": "search.pointsofinterest", "fields": {"neighborhood": null, "name": "Baltimore Beach", "data_type": "XML", "avg_review": 5.0, "created_at": "2009-03-12 16:11:24", "popularity": 3, "updated_at": null, "longitude": -76.609110999999999, "num_reviews": 1, "review_points": 5, "source_id": 2, "latitude": 39.280908999999987}}, {"pk": 81, "model": "search.pointsofinterest", "fields": {"neighborhood": null, "name": "Gold's Gym", "data_type": "XML", "avg_review": 3.0, "created_at": "2009-03-12 16:11:24", "popularity": 3, "updated_at": null, "longitude": -76.607208999999997, "num_reviews": 1, "review_points": 3, "source_id": 2, "latitude": 39.286565000000003}}, {"pk": 293, "model": "search.pointsofinterest", "fields": {"neighborhood": 16, "name": "Carolina's Tex Mex", "data_type": "XML", "avg_review": 0.0, "created_at": "2009-03-12 16:11:26", "popularity": 1, "updated_at": "2009-06-23 23:52:35", "longitude": -76.592821999999998, "num_reviews": 0, "review_points": 0, "source_id": 2, "latitude": 39.287835000000001}}, {"pk": 276, "model": "search.pointsofinterest", "fields": {"neighborhood": 16, "name": "Brass Monkey Saloon", "data_type": "XML", "avg_review": 0.0, "created_at": "2009-03-12 16:11:26", "popularity": 1, "updated_at": "2009-06-23 23:52:35", "longitude": -76.595141999999996, "num_reviews": 0, "review_points": 0, "source_id": 2, "latitude": 39.285322999999998}}, {"pk": 257, "model": "search.pointsofinterest", "fields": {"neighborhood": null, "name": "Patrick's of Pratt Street Irish Pub", "data_type": "XML", "avg_review": 0.0, "created_at": "2009-03-12 16:11:25", "popularity": 1, "updated_at": null, "longitude": -76.633229, "num_reviews": 0, "review_points": 0, "source_id": 2, "latitude": 39.285981999999997}}, {"pk": 634, "model": "search.pointsofinterest", "fields": {"neighborhood": null, "name": "Chokchai Thai Carry-out", "data_type": "XML", "avg_review": 4.0, "created_at": "2009-03-12 16:11:28", "popularity": 2, "updated_at": null, "longitude": -76.563267999999994, "num_reviews": 1, "review_points": 4, "source_id": 2, "latitude": 39.350141999999998}}, {"pk": 443, "model": "search.pointsofinterest", "fields": {"neighborhood": 12, "name": "Pur Lounge", "data_type": "XML", "avg_review": 0.0, "created_at": "2009-03-12 16:11:27", "popularity": 1, "updated_at": "2009-06-23 23:52:37", "longitude": -76.583798999999999, "num_reviews": 0, "review_points": 0, "source_id": 2, "latitude": 39.282975999999998}}, {"pk": 638, "model": "search.pointsofinterest", "fields": {"neighborhood": null, "name": "Daedalus Books & Music", "data_type": "XML", "avg_review": 4.0, "created_at": "2009-03-12 16:11:28", "popularity": 7, "updated_at": null, "longitude": -76.609682000000006, "num_reviews": 3, "review_points": 12, "source_id": 2, "latitude": 39.363844999999998}}, {"pk": 247, "model": "search.pointsofinterest", "fields": {"neighborhood": null, "name": "Mum's", "data_type": "XML", "avg_review": 5.0, "created_at": "2009-03-12 16:11:25", "popularity": 2, "updated_at": null, "longitude": -76.615711000000005, "num_reviews": 1, "review_points": 5, "source_id": 2, "latitude": 39.275903000000007}}, {"pk": 227, "model": "search.pointsofinterest", "fields": {"neighborhood": 14, "name": "Porters Pub", "data_type": "XML", "avg_review": 0.0, "created_at": "2009-03-12 16:11:25", "popularity": 4, "updated_at": "2009-06-23 23:52:35", "longitude": -76.609284000000002, "num_reviews": 0, "review_points": 0, "source_id": 2, "latitude": 39.277489000000003}}, {"pk": 672, "model": "search.pointsofinterest", "fields": {"neighborhood": null, "name": "Whole Foods", "data_type": "XML", "avg_review": 4.0, "created_at": "2009-03-12 16:11:28", "popularity": 16, "updated_at": null, "longitude": -76.649947999999995, "num_reviews": 2, "review_points": 8, "source_id": 2, "latitude": 39.368121000000002}}, {"pk": 169, "model": "search.pointsofinterest", "fields": {"neighborhood": 20, "name": "Gigi's", "data_type": "XML", "avg_review": 0.0, "created_at": "2009-03-12 16:11:25", "popularity": 1, "updated_at": "2009-06-23 23:52:34", "longitude": -76.615697999999995, "num_reviews": 0, "review_points": 0, "source_id": 2, "latitude": 39.301304999999999}}, {"pk": 174, "model": "search.pointsofinterest", "fields": {"neighborhood": 14, "name": "Kiku Sushi", "data_type": "XML", "avg_review": 0.0, "created_at": "2009-03-12 16:11:25", "popularity": 4, "updated_at": "2009-06-23 23:52:34", "longitude": -76.612273000000002, "num_reviews": 0, "review_points": 0, "source_id": 2, "latitude": 39.277844999999999}}, {"pk": 130, "model": "search.pointsofinterest", "fields": {"neighborhood": 13, "name": "Amicci's", "data_type": "XML", "avg_review": 4.0, "created_at": "2009-03-12 16:11:25", "popularity": 18, "updated_at": "2009-06-23 23:52:34", "longitude": -76.601855, "num_reviews": 2, "review_points": 8, "source_id": 2, "latitude": 39.286740000000002}}, {"pk": 487, "model": "search.pointsofinterest", "fields": {"neighborhood": 12, "name": "Helen's Garden", "data_type": "XML", "avg_review": 4.0, "created_at": "2009-03-12 16:11:27", "popularity": 16, "updated_at": "2009-06-23 23:52:37", "longitude": -76.575081999999995, "num_reviews": 3, "review_points": 12, "source_id": 2, "latitude": 39.280551000000003}}, {"pk": 382, "model": "search.pointsofinterest", "fields": {"neighborhood": 21, "name": "Charles Theatre", "data_type": "XML", "avg_review": 0.0, "created_at": "2009-03-12 16:11:26", "popularity": 36, "updated_at": "2009-06-23 23:52:36", "longitude": -76.616202000000001, "num_reviews": 0, "review_points": 0, "source_id": 2, "latitude": 39.309224999999998}}, {"pk": 12, "model": "search.pointsofinterest", "fields": {"neighborhood": 5, "name": "Copra", "data_type": "XML", "avg_review": 0.0, "created_at": "2009-03-12 16:11:24", "popularity": 3, "updated_at": "2009-06-23 23:52:33", "longitude": -76.615437, "num_reviews": 0, "review_points": 0, "source_id": 2, "latitude": 39.292904999999998}}, {"pk": 493, "model": "search.pointsofinterest", "fields": {"neighborhood": 12, "name": "Bay Cafe", "data_type": "XML", "avg_review": 3.0, "created_at": "2009-03-12 16:11:27", "popularity": 11, "updated_at": "2009-06-23 23:52:37", "longitude": -76.575867000000002, "num_reviews": 1, "review_points": 3, "source_id": 2, "latitude": 39.278086000000002}}, {"pk": 180, "model": "search.pointsofinterest", "fields": {"neighborhood": 14, "name": "Holly G", "data_type": "XML", "avg_review": 0.0, "created_at": "2009-03-12 16:11:25", "popularity": 1, "updated_at": "2009-06-23 23:52:34", "longitude": -76.614666, "num_reviews": 0, "review_points": 0, "source_id": 2, "latitude": 39.277509999999999}}, {"pk": 316, "model": "search.pointsofinterest", "fields": {"neighborhood": 16, "name": "Kasbah Cafe ", "data_type": "XML", "avg_review": 0.0, "created_at": "2009-03-12 16:11:26", "popularity": 0, "updated_at": "2009-06-23 23:52:36", "longitude": -76.593682000000001, "num_reviews": 0, "review_points": 0, "source_id": 2, "latitude": 39.282756999999997}}, {"pk": 456, "model": "search.pointsofinterest", "fields": {"neighborhood": 1, "name": "Paul Chen Hong Kong Restaurant", "data_type": "XML", "avg_review": 4.0, "created_at": "2009-03-12 16:11:27", "popularity": 4, "updated_at": "2009-06-23 23:52:37", "longitude": -76.617177999999996, "num_reviews": 1, "review_points": 4, "source_id": 2, "latitude": 39.317121}}, {"pk": 39, "model": "search.pointsofinterest", "fields": {"neighborhood": 5, "name": "Chinatown Cafe", "data_type": "XML", "avg_review": 0.0, "created_at": "2009-03-12 16:11:24", "popularity": 0, "updated_at": "2009-06-23 23:52:33", "longitude": -76.617948999999996, "num_reviews": 0, "review_points": 0, "source_id": 2, "latitude": 39.293770000000002}}, {"pk": 517, "model": "search.pointsofinterest", "fields": {"neighborhood": 12, "name": "Jack's Bistro", "data_type": "XML", "avg_review": 4.0, "created_at": "2009-03-12 16:11:27", "popularity": 47, "updated_at": "2009-06-23 23:52:37", "longitude": -76.571665999999993, "num_reviews": 6, "review_points": 24, "source_id": 2, "latitude": 39.279147000000002}}, {"pk": 349, "model": "search.pointsofinterest", "fields": {"neighborhood": 16, "name": "Moby's", "data_type": "XML", "avg_review": 0.0, "created_at": "2009-03-12 16:11:26", "popularity": 1, "updated_at": "2009-06-23 23:52:36", "longitude": -76.592918999999995, "num_reviews": 0, "review_points": 0, "source_id": 2, "latitude": 39.283017000000001}}, {"pk": 319, "model": "search.pointsofinterest", "fields": {"neighborhood": 16, "name": "Sound Garden", "data_type": "XML", "avg_review": 4.0, "created_at": "2009-03-12 16:11:26", "popularity": 33, "updated_at": "2009-06-23 23:52:36", "longitude": -76.594397000000001, "num_reviews": 5, "review_points": 20, "source_id": 2, "latitude": 39.281475999999998}}, {"pk": 632, "model": "search.pointsofinterest", "fields": {"neighborhood": null, "name": "Club 4100", "data_type": "XML", "avg_review": 0.0, "created_at": "2009-03-12 16:11:28", "popularity": 0, "updated_at": null, "longitude": -76.569120999999996, "num_reviews": 0, "review_points": 0, "source_id": 2, "latitude": 39.230258999999997}}, {"pk": 20, "model": "search.pointsofinterest", "fields": {"neighborhood": null, "name": "Pratt Street Ale House", "data_type": "XML", "avg_review": 5.0, "created_at": "2009-03-12 16:11:24", "popularity": 3, "updated_at": null, "longitude": -76.618048999999999, "num_reviews": 1, "review_points": 5, "source_id": 2, "latitude": 39.286369200000003}}, {"pk": 606, "model": "search.pointsofinterest", "fields": {"neighborhood": 25, "name": "Chocolatea", "data_type": "XML", "avg_review": 0.0, "created_at": "2009-03-12 16:11:28", "popularity": 1, "updated_at": "2009-06-23 23:52:38", "longitude": -76.620185000000006, "num_reviews": 0, "review_points": 0, "source_id": 2, "latitude": 39.335374000000002}}, {"pk": 285, "model": "search.pointsofinterest", "fields": {"neighborhood": null, "name": "Arcos", "data_type": "XML", "avg_review": 3.0, "created_at": "2009-03-12 16:11:26", "popularity": 25, "updated_at": null, "longitude": -76.593415000000007, "num_reviews": 8, "review_points": 24, "source_id": 2, "latitude": 39.289472999999987}}, {"pk": 178, "model": "search.pointsofinterest", "fields": {"neighborhood": 14, "name": "Elvis Restaurant & Carryout", "data_type": "XML", "avg_review": 0.0, "created_at": "2009-03-12 16:11:25", "popularity": 2, "updated_at": "2009-06-23 23:52:34", "longitude": -76.612702999999996, "num_reviews": 0, "review_points": 0, "source_id": 2, "latitude": 39.277712999999999}}, {"pk": 542, "model": "search.pointsofinterest", "fields": {"neighborhood": 12, "name": "Canton Station", "data_type": "XML", "avg_review": 4.0, "created_at": "2009-03-12 16:11:27", "popularity": 3, "updated_at": "2009-06-23 23:52:38", "longitude": -76.566999999999993, "num_reviews": 2, "review_points": 8, "source_id": 2, "latitude": 39.280746999999998}}, {"pk": 42, "model": "search.pointsofinterest", "fields": {"neighborhood": 5, "name": "Five Guys", "data_type": "XML", "avg_review": 5.0, "created_at": "2009-03-12 16:11:24", "popularity": 0, "updated_at": "2009-06-23 23:52:33", "longitude": -76.614275000000006, "num_reviews": 1, "review_points": 5, "source_id": 2, "latitude": 39.294255}}, {"pk": 309, "model": "search.pointsofinterest", "fields": {"neighborhood": 16, "name": "Teavolve", "data_type": "XML", "avg_review": 0.0, "created_at": "2009-03-12 16:11:26", "popularity": 4, "updated_at": "2009-06-23 23:52:35", "longitude": -76.592778999999993, "num_reviews": 0, "review_points": 0, "source_id": 2, "latitude": 39.285429000000001}}, {"pk": 323, "model": "search.pointsofinterest", "fields": {"neighborhood": 16, "name": "Timothy Dean Bistro", "data_type": "XML", "avg_review": 4.0, "created_at": "2009-03-12 16:11:26", "popularity": 2, "updated_at": "2009-06-23 23:52:36", "longitude": -76.592410999999998, "num_reviews": 1, "review_points": 4, "source_id": 2, "latitude": 39.285626800000003}}, {"pk": 675, "model": "search.pointsofinterest", "fields": {"neighborhood": null, "name": "Stoneleigh Duckpin Bowling Center", "data_type": "XML", "avg_review": 0.0, "created_at": "2009-03-12 16:11:28", "popularity": 4, "updated_at": null, "longitude": -76.608831899999998, "num_reviews": 0, "review_points": 0, "source_id": 2, "latitude": 39.377080999999997}}, {"pk": 270, "model": "search.pointsofinterest", "fields": {"neighborhood": 20, "name": "XS", "data_type": "XML", "avg_review": 5.0, "created_at": "2009-03-12 16:11:26", "popularity": 20, "updated_at": "2009-06-23 23:52:35", "longitude": -76.615926999999999, "num_reviews": 1, "review_points": 5, "source_id": 2, "latitude": 39.304949000000001}}, {"pk": 306, "model": "search.pointsofinterest", "fields": {"neighborhood": 16, "name": "La Marsa", "data_type": "XML", "avg_review": 0.0, "created_at": "2009-03-12 16:11:26", "popularity": 2, "updated_at": "2009-06-23 23:52:35", "longitude": -76.593694999999997, "num_reviews": 0, "review_points": 0, "source_id": 2, "latitude": 39.283242000000001}}, {"pk": 245, "model": "search.pointsofinterest", "fields": {"neighborhood": 20, "name": "Asqual Coffee Shop", "data_type": "XML", "avg_review": 4.0, "created_at": "2009-03-12 16:11:25", "popularity": 2, "updated_at": "2009-06-23 23:52:35", "longitude": -76.617392499999994, "num_reviews": 1, "review_points": 4, "source_id": 2, "latitude": 39.303013200000002}}, {"pk": 269, "model": "search.pointsofinterest", "fields": {"neighborhood": 20, "name": "Baltimore Theater Project", "data_type": "XML", "avg_review": 0.0, "created_at": "2009-03-12 16:11:26", "popularity": 2, "updated_at": "2009-06-23 23:52:35", "longitude": -76.618757200000005, "num_reviews": 0, "review_points": 0, "source_id": 2, "latitude": 39.304400800000003}}, {"pk": 175, "model": "search.pointsofinterest", "fields": {"neighborhood": null, "name": "Lithuanian Hall", "data_type": "XML", "avg_review": 4.0, "created_at": "2009-03-12 16:11:25", "popularity": 5, "updated_at": null, "longitude": -76.630499599999993, "num_reviews": 2, "review_points": 8, "source_id": 2, "latitude": 39.287910500000002}}, {"pk": 466, "model": "search.pointsofinterest", "fields": {"neighborhood": 12, "name": "Safeway", "data_type": "XML", "avg_review": 2.0, "created_at": "2009-03-12 16:11:27", "popularity": 9, "updated_at": "2009-06-23 23:52:37", "longitude": -76.579691999999994, "num_reviews": 5, "review_points": 10, "source_id": 2, "latitude": 39.280479}}, {"pk": 221, "model": "search.pointsofinterest", "fields": {"neighborhood": 15, "name": "Benjamin Lovell Shoes", "data_type": "XML", "avg_review": 5.0, "created_at": "2009-03-12 16:11:25", "popularity": 2, "updated_at": "2009-06-23 23:52:35", "longitude": -76.600282500000006, "num_reviews": 1, "review_points": 5, "source_id": 2, "latitude": 39.284060099999998}}, {"pk": 586, "model": "search.pointsofinterest", "fields": {"neighborhood": 17, "name": "Mud & Metal", "data_type": "XML", "avg_review": 5.0, "created_at": "2009-03-12 16:11:28", "popularity": 8, "updated_at": "2009-06-23 23:52:38", "longitude": -76.634483000000003, "num_reviews": 1, "review_points": 5, "source_id": 2, "latitude": 39.330874999999999}}]